source_key,external_id,source_url,title,observed_at,observation_status,region,latitude,longitude,rating,review_count,observed_price_amount,observed_price_currency,observed_price_unit,bedrooms,bathrooms,guest_capacity,is_superhost,host_external_id,official_website,business_whatsapp,direct_booking_url,canonical_property_key
demo_fixture,demo-001,https://fixture.local/listing/demo-001,Villa Aruna,2026-07-18T00:00:00Z,active,Canggu,-8.6478,115.1385,4.92,184,3500000,IDR,night,3,3,6,true,host-001,https://villaaruna.example,+628111111111,https://villaaruna.example/book,villa-aruna
demo_fixture,demo-002,https://fixture.local/listing/demo-002,Villa Sora,2026-07-18T00:00:00Z,active,Uluwatu,-8.8291,115.0849,4.88,96,4200000,IDR,night,4,4,8,true,host-002,,,,villa-sora
demo_fixture,demo-003,https://fixture.local/listing/demo-003,Uma Taman,2026-07-18T00:00:00Z,active,Ubud,-8.5069,115.2625,4.97,251,2800000,IDR,night,2,2,4,false,host-003,https://umataman.example,,https://umataman.example/stay,uma-taman
demo_fixture,demo-004,https://fixture.local/listing/demo-004,Casa Ombak,2026-07-18T00:00:00Z,active,Pererenan,-8.6512,115.1264,4.81,72,3100000,IDR,night,3,3,6,false,host-004,,,,casa-ombak
demo_fixture,demo-005,https://fixture.local/listing/demo-005,Villa Nadi,2026-07-18T00:00:00Z,active,Seminyak,-8.6902,115.1620,4.90,133,3900000,IDR,night,3,3,6,true,host-005,https://villanadi.example,+628122222222,,villa-nadi
demo_fixture,demo-006,https://fixture.local/listing/demo-006,Bingin House,2026-07-18T00:00:00Z,active,Bingin,-8.8067,115.1133,4.76,54,2400000,IDR,night,2,2,4,false,host-006,,,,bingin-house
